[
  {
    "name": "New Delhi",
    "latitude": 28.6139,
    "longitude": 77.2090
  },
  {
    "name": "Mumbai",
    "latitude": 19.0760,
    "longitude": 72.8777
  },
  {
    "name": "Bangalore",
    "latitude": 12.9716,
    "longitude": 77.5946
  },
  {
    "name": "Chennai",
    "latitude": 13.0827,
    "longitude": 80.2707
  },
  {
    "name": "Kolkata",
    "latitude": 22.5726,
    "longitude": 88.3639
  },
  {
    "name": "Hyderabad",
    "latitude": 17.3850,
    "longitude": 78.4867
  },
  {
    "name": "Pune",
    "latitude": 18.5204,
    "longitude": 73.8567
  },
  {
    "name": "Ahmedabad",
    "latitude": 23.0225,
    "longitude": 72.5714
  },
  {
    "name": "Jaipur",
    "latitude": 26.9124,
    "longitude": 75.7873
  },
  {
    "name": "Lucknow",
    "latitude": 26.8467,
    "longitude": 80.9462
  },
  {
    "name": "Chandigarh",
    "latitude": 30.7333,
    "longitude": 76.7794
  },
  {
    "name": "Kochi",
    "latitude": 9.9312,
    "longitude": 76.2673
  },
  {
    "name": "Indore",
    "latitude": 22.7196,
    "longitude": 75.8577
  },
  {
    "name": "Bhopal",
    "latitude": 23.2599,
    "longitude": 77.4126
  },
  {
    "name": "Goa",
    "latitude": 15.2993,
    "longitude": 74.1240
  }
]